{
  "collected_at": "2026-07-06T17:02:01.846152+00:00",
  "source": "tomtom_traffic_flow",
  "success_count": 8,
  "fail_count": 0,
  "readings": [
    {
      "timestamp": "2026-07-06 17:01:51.456884+00:00",
      "location_name": "sarjapur_road_junction",
      "lat": 12.9165,
      "lon": 77.675,
      "current_speed": 36,
      "free_flow_speed": 36,
      "confidence": 1,
      "congestion_ratio": 1.0
    },
    {
      "timestamp": "2026-07-06 17:01:52.843610+00:00",
      "location_name": "dommasandra_circle",
      "lat": 12.8832,
      "lon": 77.7524,
      "current_speed": 38,
      "free_flow_speed": 38,
      "confidence": 1,
      "congestion_ratio": 1.0
    },
    {
      "timestamp": "2026-07-06 17:01:54.167127+00:00",
      "location_name": "chembenahalli",
      "lat": 12.8793,
      "lon": 77.7616,
      "current_speed": 38,
      "free_flow_speed": 38,
      "confidence": 1,
      "congestion_ratio": 1.0
    },
    {
      "timestamp": "2026-07-06 17:01:55.767760+00:00",
      "location_name": "varthur_gunjur_junction",
      "lat": 12.9265,
      "lon": 77.7377,
      "current_speed": 36,
      "free_flow_speed": 36,
      "confidence": 1,
      "congestion_ratio": 1.0
    },
    {
      "timestamp": "2026-07-06 17:01:57.162970+00:00",
      "location_name": "sarjapur_town_center",
      "lat": 12.86,
      "lon": 77.786,
      "current_speed": 38,
      "free_flow_speed": 38,
      "confidence": 1,
      "congestion_ratio": 1.0
    },
    {
      "timestamp": "2026-07-06 17:01:58.539993+00:00",
      "location_name": "carmelaram_junction",
      "lat": 12.9125,
      "lon": 77.7056,
      "current_speed": 24,
      "free_flow_speed": 26,
      "confidence": 0.922696,
      "congestion_ratio": 0.923
    },
    {
      "timestamp": "2026-07-06 17:01:59.953591+00:00",
      "location_name": "harlur_road_junction",
      "lat": 12.908,
      "lon": 77.676,
      "current_speed": 27,
      "free_flow_speed": 27,
      "confidence": 1,
      "congestion_ratio": 1.0
    },
    {
      "timestamp": "2026-07-06 17:02:01.330153+00:00",
      "location_name": "iblur_wipro_junction",
      "lat": 12.9209,
      "lon": 77.6653,
      "current_speed": 20,
      "free_flow_speed": 25,
      "confidence": 1,
      "congestion_ratio": 0.8
    }
  ]
}