{
  "collected_at": "2026-07-06T16:02:00.177765+00:00",
  "source": "tomtom_traffic_flow",
  "success_count": 8,
  "fail_count": 0,
  "readings": [
    {
      "timestamp": "2026-07-06 16:01:51.223763+00:00",
      "location_name": "sarjapur_road_junction",
      "lat": 12.9165,
      "lon": 77.675,
      "current_speed": 31,
      "free_flow_speed": 36,
      "confidence": 0.998306,
      "congestion_ratio": 0.861
    },
    {
      "timestamp": "2026-07-06 16:01:52.372882+00:00",
      "location_name": "dommasandra_circle",
      "lat": 12.8832,
      "lon": 77.7524,
      "current_speed": 38,
      "free_flow_speed": 38,
      "confidence": 1,
      "congestion_ratio": 1.0
    },
    {
      "timestamp": "2026-07-06 16:01:53.539741+00:00",
      "location_name": "chembenahalli",
      "lat": 12.8793,
      "lon": 77.7616,
      "current_speed": 38,
      "free_flow_speed": 38,
      "confidence": 1,
      "congestion_ratio": 1.0
    },
    {
      "timestamp": "2026-07-06 16:01:54.870534+00:00",
      "location_name": "varthur_gunjur_junction",
      "lat": 12.9265,
      "lon": 77.7377,
      "current_speed": 31,
      "free_flow_speed": 36,
      "confidence": 0.998306,
      "congestion_ratio": 0.861
    },
    {
      "timestamp": "2026-07-06 16:01:56.070544+00:00",
      "location_name": "sarjapur_town_center",
      "lat": 12.86,
      "lon": 77.786,
      "current_speed": 38,
      "free_flow_speed": 38,
      "confidence": 1,
      "congestion_ratio": 1.0
    },
    {
      "timestamp": "2026-07-06 16:01:57.266740+00:00",
      "location_name": "carmelaram_junction",
      "lat": 12.9125,
      "lon": 77.7056,
      "current_speed": 22,
      "free_flow_speed": 26,
      "confidence": 0.925453,
      "congestion_ratio": 0.846
    },
    {
      "timestamp": "2026-07-06 16:01:58.457012+00:00",
      "location_name": "harlur_road_junction",
      "lat": 12.908,
      "lon": 77.676,
      "current_speed": 21,
      "free_flow_speed": 26,
      "confidence": 1,
      "congestion_ratio": 0.808
    },
    {
      "timestamp": "2026-07-06 16:01:59.667407+00:00",
      "location_name": "iblur_wipro_junction",
      "lat": 12.9209,
      "lon": 77.6653,
      "current_speed": 25,
      "free_flow_speed": 25,
      "confidence": 1,
      "congestion_ratio": 1.0
    }
  ]
}